place,number,lat,lon
UK,2,53.544918,-2.276611
South East Asia,1,3.521166,115.145264
Europe (Excluding UK),8,48.229842,11.434326
East Asia,2,33.144049,113.739014
North America/Canada,3,48.463498,-96.495361
Middle East,1,29.343875,42.714844
South Asia,2,21.739091,77.167969
Africa,1,5.747174,21.972656
Australasia,1,-23.120154,135.175781
Caribbean,1,20.591652,-75.937500