place,number,lat,lon,colour

United Kingdom,15,53.347806,-2.062500,#ff0000
South East Asia,10,3.521166,115.145264
Europe (Excluding UK),5,48.229842,11.434326
East Asia,4,33.144049,113.739014
North America/Canada,3,48.463498,-96.495361
Middle East,2,29.343875,42.714844
South Asia,2,21.739091,77.167969
Africa,1,5.747174,21.972656
Australasia,1,-23.120154,135.175781
Caribbean,1,20.591652,-75.937500